{
  "type": "FeatureCollection",
  "features": [
    { "type": "Feature", "geometry": { "type": "Point", "coordinates": [-0.2230107, 39.7524821] }, "properties": { "municipio": "Almenara" } },
    { "type": "Feature", "geometry": { "type": "Point", "coordinates": [-0.04979977906888847, 39.940177367064685] }, "properties": { "municipio": "Almassora" } },
    { "type": "Feature", "geometry": { "type": "Point", "coordinates": [-0.1143587, 39.8963328] }, "properties": { "municipio": "Les Alqueries/Alquerías del Niño Perdido" } },
    { "type": "Feature", "geometry": { "type": "Point", "coordinates": [0.027878996776884733, 40.215465225144136] }, "properties": { "municipio": "Benlloc" } },
    { "type": "Feature", "geometry": { "type": "Point", "coordinates": [-0.06999624325945579, 39.89535227534875] }, "properties": { "municipio": "Borriana/Burriana" } },
    { "type": "Feature", "geometry": { "type": "Point", "coordinates": [-0.06233959599008272, 40.05062368010152] }, "properties": { "municipio": "Borriol" } },
    { "type": "Feature", "geometry": { "type": "Point", "coordinates": [0.07045715565217901, 40.134040704210506] }, "properties": { "municipio": "Cabanes" } },
    { "type": "Feature", "geometry": { "type": "Point", "coordinates": [0.2273721867341502, 40.55090415975082] }, "properties": { "municipio": "Canet lo Roig" } },
    { "type": "Feature", "geometry": { "type": "Point", "coordinates": [-0.0156249, 39.9943382] }, "properties": { "municipio": "Castelló de la Plana/Castelló de la Plana" } },
    { "type": "Feature", "geometry": { "type": "Point", "coordinates": [-0.18062594468123536, 39.78051271179902] }, "properties": { "municipio": "Chilches/Xilxes" } },
    { "type": "Feature", "geometry": { "type": "Point", "coordinates": [0.1211825, 40.310827] }, "properties": { "municipio": "Les Coves de Vinromà" } },
    { "type": "Feature", "geometry": { "type": "Point", "coordinates": [0.2524664, 40.512287] }, "properties": { "municipio": "La Jana" } },
    { "type": "Feature", "geometry": { "type": "Point", "coordinates": [-0.2065966, 39.7686255] }, "properties": { "municipio": "la Llosa, Spain" } },
    { "type": "Feature", "geometry": { "type": "Point", "coordinates": [-0.15291027751503297, 39.798203189953135] }, "properties": { "municipio": "Moncofa" } },
    { "type": "Feature", "geometry": { "type": "Point", "coordinates": [-0.15029197781832548, 39.844670243602096] }, "properties": { "municipio": "Nules" } },
    { "type": "Feature", "geometry": { "type": "Point", "coordinates": [-0.0014726, 40.1026879] }, "properties": { "municipio": "La Pobla Tornesa" } },
    { "type": "Feature", "geometry": { "type": "Point", "coordinates": [0.1740316, 40.4177148] }, "properties": { "municipio": "La Salzadella" } },
    { "type": "Feature", "geometry": { "type": "Point", "coordinates": [0.32850662149796944, 40.59253962827219] }, "properties": { "municipio": "San Rafael del Río" } },
    { "type": "Feature", "geometry": { "type": "Point", "coordinates": [0.17985268446359395, 40.464637947287244] }, "properties": { "municipio": "Sant Mateu" } },
    { "type": "Feature", "geometry": { "type": "Point", "coordinates": [0.0703687, 40.2634555] }, "properties": { "municipio": "La Torre d’en Doménec" } },
    { "type": "Feature", "geometry": { "type": "Point", "coordinates": [0.3056223614596894, 40.5487976018473] }, "properties": { "municipio": "Traiguera" } },
    { "type": "Feature", "geometry": { "type": "Point", "coordinates": [0.072647, 40.2309678] }, "properties": { "municipio": "Vilanova d’Alcolea" } },
    { "type": "Feature", "geometry": { "type": "Point", "coordinates": [-0.1296276570002165, 39.93403228972625] }, "properties": { "municipio": "Vila-real" } },
    { "type": "Feature", "geometry": { "type": "Point", "coordinates": [-0.4747619, 38.6982348] }, "properties": { "municipio": "Alcoi/Alcoy" } },
    { "type": "Feature", "geometry": { "type": "Point", "coordinates": [-0.6426192368873094, 38.442030231857494] }, "properties": { "municipio": "Agost" } },
    { "type": "Feature", "geometry": { "type": "Point", "coordinates": [-0.4881708, 38.3436365] }, "properties": { "municipio": "Alacant/Alicante" } },
    { "type": "Feature", "geometry": { "type": "Point", "coordinates": [-0.8927634833552699, 38.21876176607197] }, "properties": { "municipio": "Albatera" } },
    { "type": "Feature", "geometry": { "type": "Point", "coordinates": [-0.5631283590895338, 38.78138983211493] }, "properties": { "municipio": "Alfafara" } },
    { "type": "Feature", "geometry": { "type": "Point", "coordinates": [-0.6768968284772302, 38.70491993940204] }, "properties": { "municipio": "Banyeres de Mariola" } },
    { "type": "Feature", "geometry": { "type": "Point", "coordinates": [-0.7612726846531207, 38.72321608906914] }, "properties": { "municipio": "Beneixama" } },
    { "type": "Feature", "geometry": { "type": "Point", "coordinates": [-0.7524929884882848, 38.64135216922011] }, "properties": { "municipio": "Biar" } },
    { "type": "Feature", "geometry": { "type": "Point", "coordinates": [-0.89705962103527, 38.06056847146516] }, "properties": { "municipio": "Bigastro" } },
    { "type": "Feature", "geometry": { "type": "Point", "coordinates": [-0.8598193270371184, 38.130037214276555] }, "properties": { "municipio": "Callosa de Segura" } },
    { "type": "Feature", "geometry": { "type": "Point", "coordinates": [-0.6780497225419794, 38.562970547843925] }, "properties": { "municipio": "Castalla" } },
    { "type": "Feature", "geometry": { "type": "Point", "coordinates": [-0.9058370608247176, 38.138978016465494] }, "properties": { "municipio": "Cox" } },
    { "type": "Feature", "geometry": { "type": "Point", "coordinates": [-0.8132068557642806, 38.24033475246965] }, "properties": { "municipio": "Crevillent" } },
    { "type": "Feature", "geometry": { "type": "Point", "coordinates": [-0.6988391, 38.2653307] }, "properties": { "municipio": "Elx/Elche" } },
    { "type": "Feature", "geometry": { "type": "Point", "coordinates": [-0.8685799301328272, 38.15849333979865] }, "properties": { "municipio": "Granja de Rocamora" } },
    { "type": "Feature", "geometry": { "type": "Point", "coordinates": [-0.5629941167431154, 38.624814560637006] }, "properties": { "municipio": "Ibi" } },
    { "type": "Feature", "geometry": { "type": "Point", "coordinates": [-0.6458010876607265, 38.63699019869255] }, "properties": { "municipio": "Onil" } },
    { "type": "Feature", "geometry": { "type": "Point", "coordinates": [-0.8957849331460607, 37.9994074539417] }, "properties": { "municipio": "Orihuela" } },
    { "type": "Feature", "geometry": { "type": "Point", "coordinates": [-0.8282512583587499, 37.89351658558061] }, "properties": { "municipio": "Pilar de la Horadada" } },
    { "type": "Feature", "geometry": { "type": "Point", "coordinates": [-0.9135001484294468, 38.11703238922396] }, "properties": { "municipio": "Redován" } },
    { "type": "Feature", "geometry": { "type": "Point", "coordinates": [-0.8393591178374386, 38.1765211393885] }, "properties": { "municipio": "San Isidro" } },
    { "type": "Feature", "geometry": { "type": "Point", "coordinates": [-0.5250339, 38.3964248] }, "properties": { "municipio": "Sant Vicent del Raspeig" } },
    { "type": "Feature", "geometry": { "type": "Point", "coordinates": [-0.595465840511259, 38.52018637371588] }, "properties": { "municipio": "Tibi" } },
    { "type": "Feature", "geometry": { "type": "Point", "coordinates": [-0.5365048912631388, 39.11693357676559] }, "properties": { "municipio": "Alberic" } },
    { "type": "Feature", "geometry": { "type": "Point", "coordinates": [-0.5577163055130676, 38.83541845368181] }, "properties": { "municipio": "Agullent" } },
    { "type": "Feature", "geometry": { "type": "Point", "coordinates": [-0.6021500864377478, 38.883796973760695] }, "properties": { "municipio": "Aielo de Malferit" } },
    { "type": "Feature", "geometry": { "type": "Point", "coordinates": [-0.5236726937705898, 38.85180169877684] }, "properties": { "municipio": "Albaida" } },
    { "type": "Feature", "geometry": { "type": "Point", "coordinates": [-0.4846064894740534, 39.462937024687776] }, "properties": { "municipio": "Aldaia" } },
    { "type": "Feature", "geometry": { "type": "Point", "coordinates": [-0.5605178, 39.2767738] }, "properties": { "municipio": "Alfarb" } },
    { "type": "Feature", "geometry": { "type": "Point", "coordinates": [-0.40429264292271344, 39.14412913768398] }, "properties": { "municipio": "Alzira" } },
    { "type": "Feature", "geometry": { "type": "Point", "coordinates": [-0.6011698154758762, 39.10231032317439] }, "properties": { "municipio": "Antella" } },
    { "type": "Feature", "geometry": { "type": "Point", "coordinates": [-0.23903204778863615, 39.734021315232354] }, "properties": { "municipio": "Benavites" } },
    { "type": "Feature", "geometry": { "type": "Point", "coordinates": [-0.5528328262270698, 39.202490632971205] }, "properties": { "municipio": "Benimodo" } },
    { "type": "Feature", "geometry": { "type": "Point", "coordinates": [-0.461898408993059, 39.60078359441496] }, "properties": { "municipio": "Bétera" } },
    { "type": "Feature", "geometry": { "type": "Point", "coordinates": [-0.607259028383506, 38.738246142120964] }, "properties": { "municipio": "Bocairent" } },
    { "type": "Feature", "geometry": { "type": "Point", "coordinates": [-0.5854483386554342, 38.94557314379931] }, "properties": { "municipio": "Canals" } },
    { "type": "Feature", "geometry": { "type": "Point", "coordinates": [-0.5723502616835445, 39.057424422210254] }, "properties": { "municipio": "Càrcer" } },
    { "type": "Feature", "geometry": { "type": "Point", "coordinates": [-0.5136339910679444, 39.240045366052975] }, "properties": { "municipio": "Carlet" } },
    { "type": "Feature", "geometry": { "type": "Point", "coordinates": [-0.607323288799495, 39.25257283688266] }, "properties": { "municipio": "Catadau" } },
    { "type": "Feature", "geometry": { "type": "Point", "coordinates": [-0.6174116996679707, 38.98397493987045] }, "properties": { "municipio": "Cerdà" } },
    { "type": "Feature", "geometry": { "type": "Point", "coordinates": [-0.7902465731740673, 39.507669381552795] }, "properties": { "municipio": "Chiva" } },
    { "type": "Feature", "geometry": { "type": "Point", "coordinates": [-0.600485398466668, 39.05696614504264] }, "properties": { "municipio": "Cotes" } },
    { "type": "Feature", "geometry": { "type": "Point", "coordinates": [-0.3062566, 39.5887818] }, "properties": { "municipio": "El Puig de Santa Maria" } },
    { "type": "Feature", "geometry": { "type": "Point", "coordinates": [-0.5666587650923252, 39.094078020256774] }, "properties": { "municipio": "Gavarda" } },
    { "type": "Feature", "geometry": { "type": "Point", "coordinates": [-0.43563578171519396, 39.5451215997371] }, "properties": { "municipio": "Godella" } },
    { "type": "Feature", "geometry": { "type": "Point", "coordinates": [-0.4937181750967964, 39.17578201920946] }, "properties": { "municipio": "Guadassuar" } },
    { "type": "Feature", "geometry": { "type": "Point", "coordinates": [-0.5560668, 38.9962573] }, "properties": { "municipio": "La Granja de la Costera" } },
    { "type": "Feature", "geometry": { "type": "Point", "coordinates": [-0.5042406, 39.1947105] }, "properties": { "municipio": "L’Alcúdia" } },
    { "type": "Feature", "geometry": { "type": "Point", "coordinates": [-0.5890951, 38.9710757] }, "properties": { "municipio": "L’Alcúdia de Crespins" } },
    { "type": "Feature", "geometry": { "type": "Point", "coordinates": [-0.6017944740210274, 39.000869007972526] }, "properties": { "municipio": "Llanera de Ranes" } },
    { "type": "Feature", "geometry": { "type": "Point", "coordinates": [-0.5603953159810114, 39.30882590541666] }, "properties": { "municipio": "Llombai" } },
    { "type": "Feature", "geometry": { "type": "Point", "coordinates": [-0.5535651, 38.9144633] }, "properties": { "municipio": "L’Olleria" } },
    { "type": "Feature", "geometry": { "type": "Point", "coordinates": [-0.9686367506411839, 39.65116169300272] }, "properties": { "municipio": "Loriguilla" } },
    { "type": "Feature", "geometry": { "type": "Point", "coordinates": [-0.49565540119224116, 39.496253275866856] }, "properties": { "municipio": "Manises" } },
    { "type": "Feature", "geometry": { "type": "Point", "coordinates": [-0.3447227657950304, 39.580223826692645] }, "properties": { "municipio": "Massamagrell" } },
    { "type": "Feature", "geometry": { "type": "Point", "coordinates": [-0.3941015, 39.5450484] }, "properties": { "municipio": "Montcada/Moncada" } },
    { "type": "Feature", "geometry": { "type": "Point", "coordinates": [-0.6413019266826155, 38.947681185783516] }, "properties": { "municipio": "Montesa" } },
    { "type": "Feature", "geometry": { "type": "Point", "coordinates": [-0.5799043783626869, 39.35968490750756] }, "properties": { "municipio": "Montserrat" } },
    { "type": "Feature", "geometry": { "type": "Point", "coordinates": [-0.3690511363638109, 39.582556877008514] }, "properties": { "municipio": "Museros" } },
    { "type": "Feature", "geometry": { "type": "Point", "coordinates": [-0.6552141454402158, 38.81731872946356] }, "properties": { "municipio": "Ontinyent" } },
    { "type": "Feature", "geometry": { "type": "Point", "coordinates": [-0.46416769265984575, 39.52738179997137] }, "properties": { "municipio": "Paterna" } },
    { "type": "Feature", "geometry": { "type": "Point", "coordinates": [-0.31135193290532015, 39.68314436916242] }, "properties": { "municipio": "Petrés" } },
    { "type": "Feature", "geometry": { "type": "Point", "coordinates": [-0.4926477014562073, 39.35114392050308] }, "properties": { "municipio": "Picassent" } },
    { "type": "Feature", "geometry": { "type": "Point", "coordinates": [-0.3054455623962356, 39.61656588760408] }, "properties": { "municipio": "Puçol" } },
    { "type": "Feature", "geometry": { "type": "Point", "coordinates": [-0.5184622556912011, 39.469626051222875] }, "properties": { "municipio": "Quart de Poblet" } },
    { "type": "Feature", "geometry": { "type": "Point", "coordinates": [-0.23751744474458514, 39.72463966070827] }, "properties": { "municipio": "Quartell" } },
    { "type": "Feature", "geometry": { "type": "Point", "coordinates": [-0.3479870985698911, 39.59474381434804] }, "properties": { "municipio": "Rafelbunyol" } },
    { "type": "Feature", "geometry": { "type": "Point", "coordinates": [-0.5641139741583155, 39.53123731929705] }, "properties": { "municipio": "Riba-roja de Túria" } },
    { "type": "Feature", "geometry": { "type": "Point", "coordinates": [-0.5640291132147223, 39.01229362255071] }, "properties": { "municipio": "Rotglà i Corberà" } },
    { "type": "Feature", "geometry": { "type": "Point", "coordinates": [-0.2786451, 39.6792916] }, "properties": { "municipio": "Sagunt/Sagunto" } },
    { "type": "Feature", "geometry": { "type": "Point", "coordinates": [-0.5888189508020789, 39.03339953034214] }, "properties": { "municipio": "Sellent" } },
    { "type": "Feature", "geometry": { "type": "Point", "coordinates": [-0.5679197468309101, 38.98778551139726] }, "properties": { "municipio": "Torrella" } },
    { "type": "Feature", "geometry": { "type": "Point", "coordinates": [-0.524118303352293, 39.41765994026491] }, "properties": { "municipio": "Torrent" } },
    { "type": "Feature", "geometry": { "type": "Point", "coordinates": [-0.6613577224467183, 39.18790148342142] }, "properties": { "municipio": "Tous" } },
    { "type": "Feature", "geometry": { "type": "Point", "coordinates": [-0.37392228544549155, 39.46297052652301] }, "properties": { "municipio": "València" } },
    { "type": "Feature", "geometry": { "type": "Point", "coordinates": [-0.555163675043035, 38.98696293175027] }, "properties": { "municipio": "Vallés" } },
    { "type": "Feature", "geometry": { "type": "Point", "coordinates": [-0.5002050579932106, 39.00961172601933] }, "properties": { "municipio": "Xàtiva" } }
  ]
}
